[
    {
      "location": [
        {
          "name": "Ambrolauri",
          "point": {
            "x": -239010.078125,
            "y": 505.00863647461,
            "z": 731177.125
          },
          "radius": 1524
        }
      ],
      "locationDetails": {
        "altitude": 505.00863647461,
        "lat": 42.535901035417,
        "lon": 43.111341987483,
        "mgrs": "38T LN 449 110"
      }
    },
    {
      "location": [
        {
          "name": "Anapa",
          "point": {
            "x": -5291.4287109375,
            "y": 43.00004196167,
            "z": 243028.578125
          },
          "radius": 3000
        }
      ],
      "locationDetails": {
        "altitude": 43.00004196167,
        "lat": 45.006082378134,
        "lon": 37.346638855248,
        "mgrs": "37T CK 697 850"
      }
    },
    {
      "location": [
        {
          "name": "Apsheronsk",
          "point": {
            "x": -53993.046875,
            "y": 222.30238342285,
            "z": 433769.625
          },
          "radius": 1950.7199707031
        }
      ],
      "locationDetails": {
        "altitude": 222.30238342285,
        "lat": 44.453339730242,
        "lon": 39.702567105134,
        "mgrs": "37T EK 559 225"
      }
    },
    {
      "location": [
        {
          "name": "Arhipo",
          "point": {
            "x": -65379.3828125,
            "y": 35.747188568115,
            "z": 341917.5
          },
          "radius": 1828.8000488281
        }
      ],
      "locationDetails": {
        "altitude": 35.747188568115,
        "lat": 44.413172958434,
        "lon": 38.544389778485,
        "mgrs": "37T DK 637 179"
      }
    },
    {
      "location": [
        {
          "name": "Arhyz",
          "point": {
            "x": -141746.96875,
            "y": 1496.1717529297,
            "z": 569667.5
          },
          "radius": 2133.6000976563
        }
      ],
      "locationDetails": {
        "altitude": 1496.1717529297,
        "lat": 43.559154169063,
        "lon": 41.28412271415,
        "mgrs": "37T FJ 845 254"
      }
    },
    {
      "location": [
        {
          "name": "Batumi",
          "point": {
            "x": -355677.96875,
            "y": 10.044037818909,
            "z": 617023.8125
          },
          "radius": 3000
        }
      ],
      "locationDetails": {
        "altitude": 10.044037818909,
        "lat": 41.611103014711,
        "lon": 41.596094913012,
        "mgrs": "37T GG 163 099"
      }
    },
    {
      "location": [
        {
          "name": "Beslan",
          "point": {
            "x": -148800.0625,
            "y": 524.82556152344,
            "z": 843364.9375
          },
          "radius": 2438.3999023438
        }
      ],
      "locationDetails": {
        "altitude": 524.82556152344,
        "lat": 43.204231399628,
        "lon": 44.601790595731,
        "mgrs": "38T MN 677 836"
      }
    },
    {
      "location": [
        {
          "name": "Buron",
          "point": {
            "x": -201698.1875,
            "y": 1209.4050292969,
            "z": 800678.125
          },
          "radius": 744.62640380859
        }
      ],
      "locationDetails": {
        "altitude": 1209.4050292969,
        "lat": 42.788508080226,
        "lon": 44.001546049766,
        "mgrs": "38T MN 183 378"
      }
    },
    {
      "location": [
        {
          "name": "Cherkessk",
          "point": {
            "x": -56857.73046875,
            "y": 504.97570800781,
            "z": 624280.5
          },
          "radius": 3000
        }
      ],
      "locationDetails": {
        "altitude": 504.97570800781,
        "lat": 44.26326669907,
        "lon": 42.067115820431,
        "mgrs": "38T KQ 659 053"
      }
    },
    {
      "location": [
        {
          "name": "Chernigovskoe",
          "point": {
            "x": -77777.8515625,
            "y": 348.44342041016,
            "z": 441682.8125
          },
          "radius": 1171.3464355469
        }
      ],
      "locationDetails": {
        "altitude": 348.44342041016,
        "lat": 44.234844316382,
        "lon": 39.776678335382,
        "mgrs": "37T EJ 620 982"
      }
    },
    {
      "location": [
        {
          "name": "Chikola",
          "point": {
            "x": -157526.828125,
            "y": 666.80548095703,
            "z": 790945.1875
          },
          "radius": 3000
        }
      ],
      "locationDetails": {
        "altitude": 666.80548095703,
        "lat": 43.190364017381,
        "lon": 43.954704203724,
        "mgrs": "38T MN 151 825"
      }
    },
    {
      "location": [
        {
          "name": "Gagra",
          "point": {
            "x": -177955.953125,
            "y": 50.277473449707,
            "z": 489293.09375
          },
          "radius": 3000
        }
      ],
      "locationDetails": {
        "altitude": 50.277473449707,
        "lat": 43.303395598947,
        "lon": 40.258604295512,
        "mgrs": "37T FH 021 953"
      }
    },
    {
      "location": [
        {
          "name": "Gele",
          "point": {
            "x": -50408.3828125,
            "y": 22.009922027588,
            "z": 298701.84375
          },
          "radius": 2438.3999023438
        }
      ],
      "locationDetails": {
        "altitude": 22.009922027588,
        "lat": 44.572470528047,
        "lon": 38.015301222476,
        "mgrs": "37T DK 218 359"
      }
    },
    {
      "location": [
        {
          "name": "Gubskaya",
          "point": {
            "x": -54559.59765625,
            "y": 388.92636108398,
            "z": 519575.625
          },
          "radius": 3609.7463378906
        }
      ],
      "locationDetails": {
        "altitude": 388.92636108398,
        "lat": 44.380170431835,
        "lon": 40.771156648923,
        "mgrs": "37T FK 411 156"
      }
    },
    {
      "location": [
        {
          "name": "Gudauta",
          "point": {
            "x": -196872.25,
            "y": 21.01003074646,
            "z": 516608.65625
          },
          "radius": 2268.6264648438
        }
      ],
      "locationDetails": {
        "altitude": 21.01003074646,
        "lat": 43.112752288264,
        "lon": 40.571474104928,
        "mgrs": "37T FH 279 745"
      }
    },
    {
      "location": [
        {
          "name": "Habaz",
          "point": {
            "x": -108381.421875,
            "y": 929.08172607422,
            "z": 700905.0625
          },
          "radius": 2743.1999511719
        }
      ],
      "locationDetails": {
        "altitude": 929.08172607422,
        "lat": 43.726644452676,
        "lon": 42.935951132767,
        "mgrs": "38T LP 338 436"
      }
    },
    {
      "location": [
        {
          "name": "Java",
          "point": {
            "x": -250528.21875,
            "y": 1053.78125,
            "z": 798622.0625
          },
          "radius": 1554.4799804688
        }
      ],
      "locationDetails": {
        "altitude": 1053.78125,
        "lat": 42.359159656792,
        "lon": 43.900478416034,
        "mgrs": "38T MM 095 902"
      }
    },
    {
      "location": [
        {
          "name": "Kazbegi",
          "point": {
            "x": -212607.390625,
            "y": 1685.8209228516,
            "z": 853700.625
          },
          "radius": 2133.6000976563
        }
      ],
      "locationDetails": {
        "altitude": 1685.8209228516,
        "lat": 42.628656028098,
        "lon": 44.61869101069,
        "mgrs": "38T MN 687 196"
      }
    },
    {
      "location": [
        {
          "name": "Kobuleti",
          "point": {
            "x": -318084.59375,
            "y": 18.010019302368,
            "z": 635543.3125
          },
          "radius": 3000
        }
      ],
      "locationDetails": {
        "altitude": 18.010019302368,
        "lat": 41.928913883294,
        "lon": 41.862054201899,
        "mgrs": "37T GG 373 458"
      }
    },
    {
      "location": [
        {
          "name": "Krasnaya",
          "point": {
            "x": -135565.484375,
            "y": 505.5592956543,
            "z": 483429.03125
          },
          "radius": 3000
        }
      ],
      "locationDetails": {
        "altitude": 505.5592956543,
        "lat": 43.686622576998,
        "lon": 40.232168763741,
        "mgrs": "37T EJ 993 378"
      }
    },
    {
      "location": [
        {
          "name": "KrasnodarC",
          "point": {
            "x": 11675.631835938,
            "y": 30.01003074646,
            "z": 367736.84375
          },
          "radius": 3000
        }
      ],
      "locationDetails": {
        "altitude": 30.01003074646,
        "lat": 45.086993941668,
        "lon": 38.937490012897,
        "mgrs": "37T DK 951 926"
      }
    },
    {
      "location": [
        {
          "name": "Krasnovostochnyy",
          "point": {
            "x": -87822.3046875,
            "y": 1011.7803344727,
            "z": 645919
          },
          "radius": 927.50640869141
        }
      ],
      "locationDetails": {
        "altitude": 1011.7803344727,
        "lat": 43.966425329108,
        "lon": 42.29109305175,
        "mgrs": "38T KP 827 717"
      }
    },
    {
      "location": [
        {
          "name": "Krymsk",
          "point": {
            "x": -7036.1665039063,
            "y": 20.010303497314,
            "z": 294288.40625
          },
          "radius": 2438.3999023438
        }
      ],
      "locationDetails": {
        "altitude": 20.010303497314,
        "lat": 44.963869820632,
        "lon": 37.993412040462,
        "mgrs": "37T DK 206 794"
      }
    },
    {
      "location": [
        {
          "name": "Kuizu",
          "point": {
            "x": -241064.9375,
            "y": 282.33975219727,
            "z": 661751.6875
          },
          "radius": 2133.6000976563
        }
      ],
      "locationDetails": {
        "altitude": 282.33975219727,
        "lat": 42.588867406628,
        "lon": 42.274809155656,
        "mgrs": "38T KN 764 188"
      }
    },
    {
      "location": [
        {
          "name": "Kutaisi",
          "point": {
            "x": -285097.6875,
            "y": 45.090682983398,
            "z": 683819
          },
          "radius": 2529.8400878906
        }
      ],
      "locationDetails": {
        "altitude": 45.090682983398,
        "lat": 42.17578716069,
        "lon": 42.480536214532,
        "mgrs": "38T KM 919 724"
      }
    },
    {
      "location": [
        {
          "name": "Kapsi",
          "point": {
            "x": -292368.34375,
            "y": 525.34606933594,
            "z": 845558.625
          },
          "radius": 2000
        }
      ],
      "locationDetails": {
        "altitude": 525.34606933594,
        "lat": 41.934613692656,
        "lon": 44.392107872224,
        "mgrs": "38T MM 496 427"
      }
    },
    {
      "location": [
        {
          "name": "Khashuri",
          "point": {
            "x": -293432.09375,
            "y": 691.95654296875,
            "z": 783337.4375
          },
          "radius": 2133.6000976563
        }
      ],
      "locationDetails": {
        "altitude": 691.95654296875,
        "lat": 41.996863186057,
        "lon": 43.653447807545,
        "mgrs": "38T LM 885 503"
      }
    },
    {
      "location": [
        {
          "name": "Kuznetsov",
          "point": {
            "x": 5294.998046875,
            "y": 0,
            "z": 170973.40625
          },
          "radius": 3000
        }
      ],
      "locationDetails": {
        "altitude": 0,
        "lat": 45.132338831655,
        "lon": 36.439888208734,
        "mgrs": "37T BL 987 008"
      }
    },
    {
      "location": [
        {
          "name": "Kuznetsov SC",
          "point": {
            "x": -1736.9012451172,
            "y": 0,
            "z": 97151.546875
          },
          "radius": 6096
        }
      ],
      "locationDetails": {
        "altitude": 0,
        "lat": 45.093516600062,
        "lon": 35.499379918491,
        "mgrs": "36T XQ 967 964"
      }
    },
    {
      "location": [
        {
          "name": "Malot",
          "point": {
            "x": -59320.28515625,
            "y": 498.84283447266,
            "z": 584777.125
          },
          "radius": 1500
        }
      ],
      "locationDetails": {
        "altitude": 498.84283447266,
        "lat": 44.2794304787,
        "lon": 41.574696234237,
        "mgrs": "37T GK 055 061"
      }
    },
    {
      "location": [
        {
          "name": "Maykop",
          "point": {
            "x": -26462.828125,
            "y": 180.01019287109,
            "z": 458333.21875
          },
          "radius": 3000
        }
      ],
      "locationDetails": {
        "altitude": 180.01019287109,
        "lat": 44.680836381046,
        "lon": 40.038787751112,
        "mgrs": "37T EK 823 480"
      }
    },
    {
      "location": [
        {
          "name": "Mozdok",
          "point": {
            "x": -83571.5234375,
            "y": 154.67208862305,
            "z": 833682.75
          },
          "radius": 3000
        }
      ],
      "locationDetails": {
        "altitude": 154.67208862305,
        "lat": 43.791618723817,
        "lon": 44.596144570313,
        "mgrs": "38T MP 675 488"
      }
    },
    {
      "location": [
        {
          "name": "Nalchik",
          "point": {
            "x": -124610.265625,
            "y": 430.01043701172,
            "z": 760614.5
          },
          "radius": 3000
        }
      ],
      "locationDetails": {
        "altitude": 430.01043701172,
        "lat": 43.51662903557,
        "lon": 43.63930819857,
        "mgrs": "38T LP 900 191"
      }
    },
    {
      "location": [
        {
          "name": "Psebay",
          "point": {
            "x": -83118.5703125,
            "y": 617.10443115234,
            "z": 526567.125
          },
          "radius": 3000
        }
      ],
      "locationDetails": {
        "altitude": 617.10443115234,
        "lat": 44.11947316765,
        "lon": 40.824051677047,
        "mgrs": "37T FJ 459 868"
      }
    },
    {
      "location": [
        {
          "name": "Roosevelt",
          "point": {
            "x": -436507.625,
            "y": 0,
            "z": 489713.1875
          },
          "radius": 6096
        }
      ],
      "locationDetails": {
        "altitude": 0,
        "lat": 40.992488834921,
        "lon": 40.002946787703,
        "mgrs": "37T EF 844 384"
      }
    },
    {
      "location": [
        {
          "name": "Sabuli",
          "point": {
            "x": -237977.609375,
            "y": 43.67212677002,
            "z": 611282.0625
          },
          "radius": 1828.8000488281
        }
      ],
      "locationDetails": {
        "altitude": 43.67212677002,
        "lat": 42.664338580528,
        "lon": 41.670851260702,
        "mgrs": "37T GH 189 270"
      }
    },
    {
      "location": [
        {
          "name": "Saratovskays",
          "point": {
            "x": -26661.04296875,
            "y": 72.394256591797,
            "z": 392364.25
          },
          "radius": 1524
        }
      ],
      "locationDetails": {
        "altitude": 72.394256591797,
        "lat": 44.727263395983,
        "lon": 39.211423679407,
        "mgrs": "37T EK 167 527"
      }
    },
    {
      "location": [
        {
          "name": "Senaki",
          "point": {
            "x": -281786.65625,
            "y": 13.239942550659,
            "z": 647257.875
          },
          "radius": 2438.3999023438
        }
      ],
      "locationDetails": {
        "altitude": 13.239942550659,
        "lat": 42.240832271608,
        "lon": 42.047750411073,
        "mgrs": "38T KM 564 807"
      }
    },
    {
      "location": [
        {
          "name": "Sochi",
          "point": {
            "x": -164320,
            "y": 30.010034561157,
            "z": 462542.84375
          },
          "radius": 3000
        }
      ],
      "locationDetails": {
        "altitude": 30.010034561157,
        "lat": 43.445688998355,
        "lon": 39.945231329144,
        "mgrs": "37T EJ 765 107"
      }
    },
    {
      "location": [
        {
          "name": "Sukhumi",
          "point": {
            "x": -220201.125,
            "y": 13.142442703247,
            "z": 563617.5
          },
          "radius": 3579.2663574219
        }
      ],
      "locationDetails": {
        "altitude": 13.142442703247,
        "lat": 42.865250024548,
        "lon": 41.116073372739,
        "mgrs": "37T FH 729 480"
      }
    },
    {
      "location": [
        {
          "name": "Tbilisi",
          "point": {
            "x": -315416.8125,
            "y": 479.69482421875,
            "z": 896735.625
          },
          "radius": 2133.6000976563
        }
      ],
      "locationDetails": {
        "altitude": 479.69482421875,
        "lat": 41.669142770904,
        "lon": 44.957952580168,
        "mgrs": "38T MM 965 130"
      }
    },
    {
      "location": [
        {
          "name": "Tianeti",
          "point": {
            "x": -265957.21875,
            "y": 1117.5595703125,
            "z": 889259
          },
          "radius": 3000
        }
      ],
      "locationDetails": {
        "altitude": 1117.5595703125,
        "lat": 42.114250005588,
        "lon": 44.952253476257,
        "mgrs": "38T MM 961 625"
      }
    },
    {
      "location": [
        {
          "name": "Tuapse",
          "point": {
            "x": -92781.1328125,
            "y": 42.973308563232,
            "z": 383275.90625
          },
          "radius": 1767.8399658203
        }
      ],
      "locationDetails": {
        "altitude": 42.973308563232,
        "lat": 44.14150868716,
        "lon": 39.035834639514,
        "mgrs": "37T EJ 029 876"
      }
    },
    {
      "location": [
        {
          "name": "Tarawa",
          "point": {
            "x": -406016.84375,
            "y": 0,
            "z": 566640.625
          },
          "radius": 6096
        }
      ],
      "locationDetails": {
        "altitude": 0,
        "lat": 41.205568448992,
        "lon": 40.942263445594,
        "mgrs": "37T FF 628 634"
      }
    },
    {
      "location": [
        {
          "name": "Tsvirmi FARP",
          "point": {
            "x": -184762.5,
            "y": 1592.53125,
            "z": 702876.875
          },
          "radius": 1524
        },
        {
          "name": "Tsvirmi SAM",
          "point": {
            "x": -187140.8125,
            "y": 2264.2216796875,
            "z": 699094.4375
          },
          "radius": 762
        }
      ],
      "locationDetails": {
        "altitude": 1592.53125,
        "lat": 43.047021377297,
        "lon": 42.848641373638,
        "mgrs": "38T LN 248 683"
      }
    },
    {
      "location": [
        {
          "name": "Uckulan",
          "point": {
            "x": -146111.609375,
            "y": 1397.7950439453,
            "z": 636514.4375
          },
          "radius": 2133.6000976563
        }
      ],
      "locationDetails": {
        "altitude": 1397.7950439453,
        "lat": 43.457693455834,
        "lon": 42.095969041085,
        "mgrs": "38T KP 651 157"
      }
    },
    {
      "location": [
        {
          "name": "Udarnyy",
          "point": {
            "x": -43175.24609375,
            "y": 505.91650390625,
            "z": 655611.375
          },
          "radius": 3000
        }
      ],
      "locationDetails": {
        "altitude": 505.91650390625,
        "lat": 44.35309627371,
        "lon": 42.474105595979,
        "mgrs": "38T KQ 987 142"
      }
    },
    {
      "location": [
        {
          "name": "Vody",
          "point": {
            "x": -51262.85546875,
            "y": 320.01031494141,
            "z": 705571.4375
          },
          "radius": 3000
        }
      ],
      "locationDetails": {
        "altitude": 320.01031494141,
        "lat": 44.228005863724,
        "lon": 43.079183065029,
        "mgrs": "38T LP 466 990"
      }
    },
    {
      "location": [
        {
          "name": "Zelenchukskaya",
          "point": {
            "x": -104000.65625,
            "y": 969.71197509766,
            "z": 594442.0625
          },
          "radius": 927.50640869141
        }
      ],
      "locationDetails": {
        "altitude": 969.71197509766,
        "lat": 43.872635320112,
        "lon": 41.635959310979,
        "mgrs": "37T GJ 118 611"
      }
    },
    {
      "location": [
        {
          "name": "Zemo-Azhara",
          "point": {
            "x": -188028.6875,
            "y": 633.19732666016,
            "z": 612625.625
          },
          "radius": 3000
        }
      ],
      "locationDetails": {
        "altitude": 633.19732666016,
        "lat": 43.107697285455,
        "lon": 41.750157550817,
        "mgrs": "37T GH 238 764"
      }
    },
    {
      "location": [
        {
          "name": "Zestafoni",
          "point": {
            "x": -285944.9375,
            "y": 161.69546508789,
            "z": 728706.6875
          },
          "radius": 2133.6000976563
        }
      ],
      "locationDetails": {
        "altitude": 161.69546508789,
        "lat": 42.122332338844,
        "lon": 43.014787854425,
        "mgrs": "38T LM 359 653"
      }
    }
  ]